[
  {
    "branch": "P0001",
    "address": "الرياض/ حي الحزم /ش علي النقيب",
    "lat": 24.537276,
    "lon": 46.645605,
    "whatsapp": "https://wa.me/966599089497",
    "maps_url": "https://maps.app.goo.gl/VBfyK7smQGJGNia39"
  },
  {
    "branch": "P0002",
    "address": "الرياض/حي اليرموك/ش ابوجعفر المنصور",
    "lat": 24.8061702978314,
    "lon": 46.7752712228488,
    "whatsapp": "https://wa.me/966592624549",
    "maps_url": "https://goo.gl/maps/82uPksKtkYgfoTWD9"
  },
  {
    "branch": "P0003",
    "address": "الرياض/حي الصحافه/ش الامير سلمان بن محمد",
    "lat": 24.8045460361497,
    "lon": 46.6415725805397,
    "whatsapp": "https://wa.me/966592085633",
    "maps_url": "https://goo.gl/maps/SqwUSg9Z59Z5d33X6"
  },
  {
    "branch": "P0004",
    "address": "الرياض/حي العارض/طريق الملك عبدالعزيز",
    "lat": 24.8864568824723,
    "lon": 46.6100898092421,
    "whatsapp": "https://wa.me/966592624458",
    "maps_url": "https://goo.gl/maps/BxhckgqcdfLqSntC8"
  },
  {
    "branch": "P0005",
    "address": "الرياض/حي النزهه/ش الامير مقرن بن عبدالعزيز",
    "lat": 24.7548490128429,
    "lon": 46.7076940280602,
    "whatsapp": "https://wa.me/966592085736",
    "maps_url": "https://goo.gl/maps/mUURZGDF3SjF4rFY9"
  },
  {
    "branch": "P0006",
    "address": "الرياض/حي الملك فهد/ش هشام بن عبدالملك",
    "lat": 24.7443156321059,
    "lon": 46.6758044344079,
    "whatsapp": "https://wa.me/966592085874",
    "maps_url": "https://maps.app.goo.gl/ixnLUPswmHAwqYs77"
  },
  {
    "branch": "P0007",
    "address": "الرياض/حي المهدية",
    "lat": 24.6570400556685,
    "lon": 46.5247690493018,
    "whatsapp": "https://wa.me/966591509230",
    "maps_url": "https://goo.gl/maps/fsBxuvXVJjRDNnkb9"
  },
  {
    "branch": "P0008",
    "address": "الرياض/حي العارض /طريق الملك عبدالعزيز",
    "lat": 24.8656371197584,
    "lon": 46.6204769860196,
    "whatsapp": "https://wa.me/966592086145",
    "maps_url": "https://goo.gl/maps/gtNdZLBmVDsgBGbt5"
  },
  {
    "branch": "P0009",
    "address": "الرياض/حي القدس /طريق الأمير سعود الكبير",
    "lat": 24.7594122199016,
    "lon": 46.7574643587119,
    "whatsapp": "https://wa.me/966592908247",
    "maps_url": "https://goo.gl/maps/uHTk2X83HZfxd8o79"
  },
  {
    "branch": "P0010",
    "address": "الرياض /حي المعزر/اسكان المعزر",
    "lat": 24.6757233102012,
    "lon": 46.6997292857461,
    "whatsapp": "https://wa.me/966566953812",
    "maps_url": "https://goo.gl/maps/8a6gPp8AttY1kJX76"
  },
  {
    "branch": "P0011",
    "address": "الرياض/الدرعيه/الشارع العام",
    "lat": 24.7486766099257,
    "lon": 46.571743474722,
    "whatsapp": "https://wa.me/966595498990",
    "maps_url": "https://goo.gl/maps/ctBieHoecJbVCFYH8"
  },
  {
    "branch": "P0012",
    "address": "الرياض/حي الخليج/ش الشيخ سليمان بن عبدالله",
    "lat": 24.7723243831349,
    "lon": 46.7929401355711,
    "whatsapp": "https://wa.me/966594291899",
    "maps_url": "https://g.page/r/CW4XcWIGTCjdEAE?gm"
  },
  {
    "branch": "P0013",
    "address": "الرياض/حي الرمال",
    "lat": 24.854066309622,
    "lon": 46.8265712927751,
    "whatsapp": "https://wa.me/966599193468",
    "maps_url": "https://maps.app.goo.gl/UW8imME61ppuT3zJ9"
  },
  {
    "branch": "P0014",
    "address": "الرياض /حي الروابي/ش الزبير بن العوام",
    "lat": 24.6968352114949,
    "lon": 46.7951427301222,
    "whatsapp": "https://wa.me/966595013885",
    "maps_url": "https://maps.app.goo.gl/56SY5FdVrno349po9"
  },
  {
    "branch": "P0015",
    "address": "الرياض/حي العريجاء/ش الامير مساعد بن فيصل",
    "lat": 24.6158876013726,
    "lon": 46.6494485558456,
    "whatsapp": "https://wa.me/966596576244",
    "maps_url": "https://maps.app.goo.gl/Ga4Qr532uZwRrNvdA"
  },
  {
    "branch": "P0016",
    "address": "الرياض/حي الدار البيضاء / شارع ابن حجر",
    "lat": 24.5676258541504,
    "lon": 46.8004622704823,
    "whatsapp": "https://wa.me/966592627644",
    "maps_url": "https://g.page/r/CRijSP-X2-1uEAE"
  },
  {
    "branch": "P0017",
    "address": "الرياض/حي العارض/ش ريحانة بنت زيد",
    "lat": 24.8902250106024,
    "lon": 46.6251228533733,
    "whatsapp": "https://wa.me/966594601749",
    "maps_url": "https://goo.gl/maps/drzjqKiQqJH2VHZm8"
  },
  {
    "branch": "P0018",
    "address": "الرياض/حي الجنادريه/ش الشروق",
    "lat": 24.8419941841933,
    "lon": 46.8842755433306,
    "whatsapp": "https://wa.me/966593632965",
    "maps_url": "https://goo.gl/maps/syZeYyUGjRVZ5ePL9"
  },
  {
    "branch": "P0019",
    "address": "الرياض/حي الروابي/ش عبدالله بن عباس",
    "lat": 24.6933665815335,
    "lon": 46.7942798899934,
    "whatsapp": "https://wa.me/966599092169",
    "maps_url": "https://goo.gl/maps/4xiVzB6AnCwF9mrE6"
  },
  {
    "branch": "P0020",
    "address": "الرياض/حي النظيم/ش المحيط",
    "lat": 24.806323971222,
    "lon": 46.882096745716,
    "whatsapp": "https://wa.me/966599291079",
    "maps_url": "https://maps.app.goo.gl/ysKg9TsSoGxgDbjB8"
  },
  {
    "branch": "P0021",
    "address": "الرياض/حي الربوة / طريق النهضة",
    "lat": 24.6949250875324,
    "lon": 46.7527934582622,
    "whatsapp": "https://wa.me/966594618423",
    "maps_url": "https://maps.app.goo.gl/D4u1vBFVpVvbWga76"
  },
  {
    "branch": "P0022",
    "address": "الرياض/حي طويق / ش أحمد بن الخطاب",
    "lat": 24.559924,
    "lon": 46.556966,
    "whatsapp": "https://wa.me/966599521241",
    "maps_url": "https://maps.app.goo.gl/AnHEHQzQ74xkm3Vn7"
  },
  {
    "branch": "P0023",
    "address": "رفحاء/حي النموذجية جنوب",
    "lat": 29.6262914900476,
    "lon": 43.5095685614869,
    "whatsapp": "https://wa.me/966593904991",
    "maps_url": "https://g.page/r/CfwNPnCl1faGEAE"
  },
  {
    "branch": "P0024",
    "address": "رفحاء/حى الورود / الورود 59",
    "lat": 29.5977875419801,
    "lon": 43.5485244592838,
    "whatsapp": "https://wa.me/966595116852",
    "maps_url": "https://maps.app.goo.gl/zd9thoEFDR39cYwr7"
  },
  {
    "branch": "P0025",
    "address": "الرياض/حي العريجاء / شارع الامام أبي حنيفة",
    "lat": 24.6268330000008,
    "lon": 46.6640183711474,
    "whatsapp": "https://wa.me/966590186930",
    "maps_url": "https://goo.gl/maps/JCMuxTfjReMYpWvs8"
  },
  {
    "branch": "P0026",
    "address": "الرياض/حي العارض/ش ابوبكر الصديق",
    "lat": 24.8633268881402,
    "lon": 46.6434105424971,
    "whatsapp": "https://wa.me/966594996798",
    "maps_url": "https://maps.app.goo.gl/Yo3sS44srM68x9Sc9"
  },
  {
    "branch": "P0027",
    "address": "الرياض /حي اشبيليا/ش القبة",
    "lat": 24.7879027321793,
    "lon": 46.7773821252987,
    "whatsapp": "https://wa.me/966592628039",
    "maps_url": "https://maps.app.goo.gl/9pN9k4EnpCbWvq5k9"
  },
  {
    "branch": "P0028",
    "address": "الرياض/حي قرطبة/ش دباس بن راشد",
    "lat": 24.8277050380524,
    "lon": 46.7378302744151,
    "whatsapp": "https://wa.me/966592086152",
    "maps_url": "https://g.page/r/CeqciONeqNGZEAE"
  },
  {
    "branch": "P0029",
    "address": "الرياض/حي اشيبيليا / ش النجاح",
    "lat": 24.8056181717995,
    "lon": 46.8029374116602,
    "whatsapp": "https://wa.me/966593893724",
    "maps_url": "https://maps.app.goo.gl/g58uDr8d1cXRLpiUA"
  },
  {
    "branch": "P0030",
    "address": "الرياض/حي المحمدية",
    "lat": 24.7408432332776,
    "lon": 46.6476013803927,
    "whatsapp": "https://wa.me/966592627560",
    "maps_url": "https://maps.app.goo.gl/tNKJqSsPU7W4rxhw6"
  },
  {
    "branch": "P0031",
    "address": "الرياض/حي العقيق / ش السليمانية",
    "lat": 24.7822744121027,
    "lon": 46.6239735628634,
    "whatsapp": "https://wa.me/966592624809",
    "maps_url": "https://maps.app.goo.gl/7aUzRJvFCDKAEx587"
  },
  {
    "branch": "P0032",
    "address": "الرياض/حي المؤنسية / ش عبدالله بن سيف",
    "lat": 24.8362165650743,
    "lon": 46.7521392841462,
    "whatsapp": "https://wa.me/966594618285",
    "maps_url": "https://maps.app.goo.gl/ztQAQopi6tc41JHh7"
  },
  {
    "branch": "P0033",
    "address": "الخرج/ قاعدة الامير سلطان الجوية",
    "lat": 24.0698629458827,
    "lon": 47.4901617468564,
    "whatsapp": "https://wa.me/966594237129",
    "maps_url": "https://maps.app.goo.gl/AD7bqgjRUEQhCZ6NA"
  },
  {
    "branch": "P0034",
    "address": "الرياض/حي عرقة/ ش ناصر المريدي",
    "lat": 24.693064,
    "lon": 46.598628,
    "whatsapp": "https://wa.me/966596807366",
    "maps_url": "https://maps.app.goo.gl/b4TqkstzhhHDkNuV7"
  },
  {
    "branch": "P0035",
    "address": "الرياض/حي النسيم الغربي / ش الامام أحمد بن حنبل",
    "lat": 24.7261230715121,
    "lon": 46.8159388337437,
    "whatsapp": "https://wa.me/966596279091",
    "maps_url": "https://maps.app.goo.gl/HTYL6QNKCHKbwwUg6"
  },
  {
    "branch": "P0036",
    "address": "المزاحمية/ش الملك فيصل",
    "lat": 24.466459,
    "lon": 46.273593,
    "whatsapp": "https://wa.me/966599261833",
    "maps_url": "https://maps.app.goo.gl/mw8ntBaasde72FrY6"
  },
  {
    "branch": "P0037",
    "address": "الرياض/حي ضهرة لبن / ش نهاوند",
    "lat": 24.640506,
    "lon": 46.56062,
    "whatsapp": "https://wa.me/966596279690",
    "maps_url": "https://maps.app.goo.gl/kCdCMX286jZ8fZBF7"
  },
  {
    "branch": "P0038",
    "address": "الرياض/حي جرير/ش صلاح الدين",
    "lat": 24.669526,
    "lon": 46.750613,
    "whatsapp": "https://wa.me/966596375974",
    "maps_url": "https://maps.app.goo.gl/xvFqxqcv6a3VHBDg8"
  },
  {
    "branch": "P0039",
    "address": "الرياض/ شارع عائشة",
    "lat": 24.603025,
    "lon": 46.641723,
    "whatsapp": "https://wa.me/966596858759",
    "maps_url": "https://maps.app.goo.gl/jyjy9UCDvuzDqhq58"
  },
  {
    "branch": "P0040",
    "address": "الرياض/ حي النظيم",
    "lat": null,
    "lon": null,
    "whatsapp": "https://wa.me/966596587052",
    "maps_url": "https://maps.app.goo.gl/KP3gw8phYw3wGZan9"
  },
  {
    "branch": "P0101",
    "address": "الطائف/طريق الشفا",
    "lat": 21.22574,
    "lon": 40.411674,
    "whatsapp": "https://wa.me/966597634690",
    "maps_url": "https://maps.app.goo.gl/AeYAXfnmtUBuZP1m7"
  },
  {
    "branch": "P0102",
    "address": "الطائف/ شبرا",
    "lat": 21.2794061013171,
    "lon": 40.4125020354047,
    "whatsapp": "https://wa.me/966597353064",
    "maps_url": "https://goo.gl/maps/8dJEg9u7DkowBV687"
  },
  {
    "branch": "P0103",
    "address": "الطائف/ أسواق النخيل",
    "lat": 21.2633112501923,
    "lon": 40.4290598177912,
    "whatsapp": "https://wa.me/966597298154",
    "maps_url": "https://goo.gl/maps/UFNUh51arJiy7MSL6"
  },
  {
    "branch": "P0104",
    "address": "الطائف/ مول قلب الطائف",
    "lat": 21.2877430927921,
    "lon": 40.4194861104551,
    "whatsapp": "https://wa.me/966593893760",
    "maps_url": "https://maps.app.goo.gl/Yt2UYtBQFCJ1QJUu8"
  },
  {
    "branch": "P0105",
    "address": "الطائف / السديرة",
    "lat": 21.3590757646968,
    "lon": 40.8384434166942,
    "whatsapp": "https://wa.me/966920032101",
    "maps_url": "https://maps.app.goo.gl/dgdKYm1WT82zuaNf6"
  },
  {
    "branch": "P0106",
    "address": "الطائف/ شبرا /  شارع أبو بكر الصديق",
    "lat": 21.2847068648219,
    "lon": 40.416608450922,
    "whatsapp": "https://wa.me/966593904279",
    "maps_url": "https://maps.app.goo.gl/kU1pmUKUZdQFAQ5eA"
  },
  {
    "branch": "P0107",
    "address": "الطائف/ حي العرفاء",
    "lat": 21.5310573360291,
    "lon": 40.6125237471267,
    "whatsapp": "https://wa.me/966595332058",
    "maps_url": "https://maps.app.goo.gl/umrVgfmxMCrcaRa59"
  },
  {
    "branch": "P0108",
    "address": "الطائف/حي الوسام/ش عمرابن الخطاب",
    "lat": 21.2253725020612,
    "lon": 40.3757727,
    "whatsapp": "https://wa.me/966599290983",
    "maps_url": "https://g.page/r/CWjWKq5MFvLxEAE"
  },
  {
    "branch": "P0109",
    "address": "الطائف/ مخطط البيعة",
    "lat": 21.283251578444,
    "lon": 40.4401425872009,
    "whatsapp": "https://wa.me/966599541425",
    "maps_url": "https://maps.app.goo.gl/5h4mz1Bq4kRfqgQs7"
  },
  {
    "branch": "P0110",
    "address": "الطائف/ مثملة",
    "lat": 21.4565945263572,
    "lon": 40.4833030711235,
    "whatsapp": "https://wa.me/966595330157",
    "maps_url": "https://goo.gl/maps/eE1iA45Cv8EB6PhV9"
  },
  {
    "branch": "P0111",
    "address": "الطائف/الوسام /طريق الوهط السياحي",
    "lat": 21.2364758669801,
    "lon": 40.3629272828466,
    "whatsapp": "https://wa.me/966593904929",
    "maps_url": "https://goo.gl/maps/kCTRuG9mv3CKg9RE7"
  },
  {
    "branch": "P0112",
    "address": "الطائف/حي الحلقة شرق/ش سليمان الراجحى",
    "lat": 21.3437868859632,
    "lon": 40.4430475134935,
    "whatsapp": "https://wa.me/966592624839",
    "maps_url": "https://g.page/r/Ca-I1pmjGJeCEAE"
  },
  {
    "branch": "P0113",
    "address": "الطائف/حي الوسام2",
    "lat": 21.2252179989599,
    "lon": 40.3947692,
    "whatsapp": "https://wa.me/966596832630",
    "maps_url": "https://g.page/r/CcTOAjtysUjREAE"
  },
  {
    "branch": "P0114",
    "address": "الطائف/الشطبه/الشهداء الجنوبيه",
    "lat": 21.2578834999935,
    "lon": 40.4176474355859,
    "whatsapp": "https://wa.me/966598637219",
    "maps_url": "https://g.page/r/CU_J10q5akKBEAE"
  },
  {
    "branch": "P0115",
    "address": "الطائف/الدهاس",
    "lat": 21.4500529999961,
    "lon": 40.5096046177897,
    "whatsapp": "https://wa.me/966593883986",
    "maps_url": "https://goo.gl/maps/sSUawUnAYSRQJGNeA"
  },
  {
    "branch": "P0116",
    "address": "الطائف/الغزالي",
    "lat": 21.2677112368186,
    "lon": 40.4292135620148,
    "whatsapp": "https://wa.me/966599510619",
    "maps_url": "https://maps.app.goo.gl/EcUXRy7aEQXg6iVx9"
  },
  {
    "branch": "P0117",
    "address": "الطائف/طريق المطار",
    "lat": 21.3630551541958,
    "lon": 40.4570015602151,
    "whatsapp": "https://wa.me/966599091794",
    "maps_url": "https://goo.gl/maps/EYPwWDpW4Lxitb3J6"
  },
  {
    "branch": "P0118",
    "address": "الطائف/شهار",
    "lat": 21.255634412392,
    "lon": 40.4095886644177,
    "whatsapp": "https://wa.me/966597635680",
    "maps_url": "https://goo.gl/maps/RXePGMEMk4F4Lamq7"
  },
  {
    "branch": "P0119",
    "address": "الطائف/الرحاب",
    "lat": 21.4525533940809,
    "lon": 40.4391245109405,
    "whatsapp": "https://wa.me/966596049660",
    "maps_url": "https://goo.gl/maps/1g9NLAtF8m69Zsdd6"
  },
  {
    "branch": "P0120",
    "address": "الطائف/عشيرة",
    "lat": 21.7582711159836,
    "lon": 40.6561128214587,
    "whatsapp": "https://wa.me/966596907510",
    "maps_url": "https://goo.gl/maps/XFPfuJVAiy9NZeDb9"
  },
  {
    "branch": "P0121",
    "address": "الطائف/الواسط",
    "lat": 21.4707061237831,
    "lon": 40.4701445874111,
    "whatsapp": "https://wa.me/966596279668",
    "maps_url": "https://goo.gl/maps/NF1ANGML2M3U12y37"
  },
  {
    "branch": "P0122",
    "address": "الطائف/البيعة",
    "lat": 21.2874984676811,
    "lon": 40.4380926814997,
    "whatsapp": "https://wa.me/966592625006",
    "maps_url": "https://maps.app.goo.gl/mj1Zet6Ue9KULDku8"
  },
  {
    "branch": "P0123",
    "address": "الطائف/النزهة",
    "lat": 21.2602009963155,
    "lon": 40.4118263773945,
    "whatsapp": "https://wa.me/966596175281",
    "maps_url": "https://maps.app.goo.gl/VPV2a9djMBHRtY8CA"
  },
  {
    "branch": "P0124",
    "address": "الطائف/جبرة",
    "lat": 21.3015660669547,
    "lon": 40.4500237726122,
    "whatsapp": "https://wa.me/966596265886",
    "maps_url": "https://maps.app.goo.gl/a3wqho8zzQPs1HWM7"
  },
  {
    "branch": "P0125",
    "address": "الطائف/السر",
    "lat": 21.2069989102411,
    "lon": 40.593473945978,
    "whatsapp": "https://wa.me/966920032101",
    "maps_url": "https://maps.app.goo.gl/7rWKhrSpr2qPccrr8"
  },
  {
    "branch": "P0126",
    "address": "الطائف/السيل الصغير",
    "lat": 21.5033209456004,
    "lon": 40.4901472969617,
    "whatsapp": "https://wa.me/966599460639",
    "maps_url": "https://maps.app.goo.gl/5nMm2RuhJfse1Yvu6"
  },
  {
    "branch": "P0127",
    "address": "الطائف/بني مالك",
    "lat": 20.666922865868,
    "lon": 40.9852087894169,
    "whatsapp": "https://wa.me/966920032101",
    "maps_url": "https://maps.app.goo.gl/RMicEkCgLbi1MHE19"
  },
  {
    "branch": "P0128",
    "address": "الطائف/تربة",
    "lat": 21.2147799189048,
    "lon": 41.6304416655156,
    "whatsapp": "https://wa.me/966596279295",
    "maps_url": "https://maps.app.goo.gl/Hp7hu9oHgD2TxmK57"
  },
  {
    "branch": "P0129",
    "address": "الطائف/تربة",
    "lat": 21.2067704,
    "lon": 41.6244286,
    "whatsapp": "https://wa.me/966920032101",
    "maps_url": "https://maps.app.goo.gl/HLWnxchMkikVL35v5"
  },
  {
    "branch": "P0130",
    "address": "الطائف/المثناة",
    "lat": 21.2635025969891,
    "lon": 40.3981616947605,
    "whatsapp": "https://wa.me/966594193997",
    "maps_url": "https://maps.app.goo.gl/QjmBa3rNFBwAemmK7"
  },
  {
    "branch": "P0131",
    "address": "الطائف/الحوية",
    "lat": 21.448207525685,
    "lon": 40.4861583980644,
    "whatsapp": "https://wa.me/966598403646",
    "maps_url": "https://maps.app.goo.gl/SikVy5Y7rE9ALk8P8"
  },
  {
    "branch": "P0132",
    "address": "الطائف/وادي جليل",
    "lat": 21.4091004,
    "lon": 40.5064715,
    "whatsapp": "https://wa.me/966596289505",
    "maps_url": "https://maps.app.goo.gl/eosCbefsJ5dWRafY9"
  },
  {
    "branch": "P0133",
    "address": "الطائف/الشرقية",
    "lat": 21.2740237,
    "lon": 40.4138605,
    "whatsapp": "https://wa.me/966596823977",
    "maps_url": "https://maps.app.goo.gl/1NMLWHNsXxYX9qco8"
  },
  {
    "branch": "P0134",
    "address": "الطائف/السيل الكبير",
    "lat": 21.6298286,
    "lon": 40.4235504,
    "whatsapp": "https://wa.me/966920032101",
    "maps_url": "https://maps.app.goo.gl/Evemrhi84BWbhGY37"
  },
  {
    "branch": "P0135",
    "address": "الطائف/النسيم",
    "lat": 21.2608325,
    "lon": 40.4588211,
    "whatsapp": "https://wa.me/966598361103",
    "maps_url": "https://maps.app.goo.gl/6Fi55MAhx6WxBK638"
  },
  {
    "branch": "P0136",
    "address": "الطائف/المعترض",
    "lat": 21.437933,
    "lon": 40.499893,
    "whatsapp": "https://wa.me/966599329838",
    "maps_url": "https://maps.app.goo.gl/eq2ajKpECKrwECWW9"
  },
  {
    "branch": "P0137",
    "address": "الطائف/السيل الصغير",
    "lat": 21.510524,
    "lon": 40.505557,
    "whatsapp": "https://wa.me/966596373308",
    "maps_url": "https://maps.app.goo.gl/WxegP797fw3EEZEd6"
  },
  {
    "branch": "P0138",
    "address": "الطائف/حي الوسام",
    "lat": 21.226276,
    "lon": 40.36133,
    "whatsapp": "https://wa.me/966596171823",
    "maps_url": "https://maps.app.goo.gl/y7CibaH1kivkHFyL6"
  },
  {
    "branch": "P0139",
    "address": "الطائف/هايبر لولو",
    "lat": 21.2917753,
    "lon": 40.4364368,
    "whatsapp": "https://wa.me/966596160246",
    "maps_url": "https://maps.app.goo.gl/ctpoArxkoQ4jTGBH8"
  },
  {
    "branch": "P0140",
    "address": "الطائف/ الحوية / طريق الشافعي",
    "lat": 21.441099,
    "lon": 40.444119,
    "whatsapp": "https://wa.me/966596130969",
    "maps_url": "https://maps.app.goo.gl/NWX17CPYLqATF1wg7"
  },
  {
    "branch": "P0201",
    "address": "جدة/ساوث مول",
    "lat": 21.45144873069,
    "lon": 39.2092851160457,
    "whatsapp": "https://wa.me/966596883058",
    "maps_url": "https://maps.app.goo.gl/LGpKRRJffTgH5eeWA"
  },
  {
    "branch": "P0202",
    "address": "جدة/ رد سي مول",
    "lat": 21.627792386519,
    "lon": 39.1099448032833,
    "whatsapp": "https://wa.me/966599674762",
    "maps_url": "https://maps.app.goo.gl/hUs47YFhbZX3QHXT9"
  },
  {
    "branch": "P0203",
    "address": "جدة /حي البساتين",
    "lat": 21.6847399858346,
    "lon": 39.1177943957358,
    "whatsapp": "https://wa.me/966592628463",
    "maps_url": "https://maps.app.goo.gl/LJMnmc5aTbwPyYjS8"
  },
  {
    "branch": "P0204",
    "address": "جدة/الجامعة بلازا",
    "lat": 21.482768157469,
    "lon": 39.2425579635205,
    "whatsapp": "https://wa.me/966598313963",
    "maps_url": "https://maps.app.goo.gl/yhzF2xP5A6kZiZYw7"
  },
  {
    "branch": "P0205",
    "address": "جدة/حي الروضة",
    "lat": 21.5612382297429,
    "lon": 39.160163432434,
    "whatsapp": "https://wa.me/966592847552",
    "maps_url": "https://maps.app.goo.gl/Rrs4jSMDGpQQNpdV9"
  },
  {
    "branch": "P0206",
    "address": "جدة/حي التيسير",
    "lat": 21.552366,
    "lon": 39.294017,
    "whatsapp": "https://wa.me/966595330753",
    "maps_url": "https://maps.app.goo.gl/s6tvQtXx57CZFvW29"
  },
  {
    "branch": "P0207",
    "address": "جدة/حي الحمدانية",
    "lat": 21.7544044,
    "lon": 39.1968417,
    "whatsapp": "https://wa.me/966592628577",
    "maps_url": "https://maps.app.goo.gl/Kb3kEDYUmn1dH3MS8"
  },
  {
    "branch": "P0208",
    "address": "جدة/حي المحاميد",
    "lat": 21.444033,
    "lon": 39.394029,
    "whatsapp": "https://wa.me/966595399794",
    "maps_url": "https://maps.app.goo.gl/ptmE4X2EKCDtiX2QA"
  },
  {
    "branch": "P0209",
    "address": "جدة/شارع الأربعين",
    "lat": 21.5514845894972,
    "lon": 39.2152895255113,
    "whatsapp": "https://wa.me/966599421248",
    "maps_url": "https://maps.app.goo.gl/DVApdDd6uHCAKD3J8"
  },
  {
    "branch": "P0210",
    "address": "جدة/السليمانية مول",
    "lat": 21.5091476600049,
    "lon": 39.2444777400766,
    "whatsapp": "https://wa.me/966599874251",
    "maps_url": "https://maps.app.goo.gl/BqyugxjcLfpdkFJNA"
  },
  {
    "branch": "P0211",
    "address": "جدة/شارع وادي وج",
    "lat": 21.5542615237604,
    "lon": 39.1915498328416,
    "whatsapp": "https://wa.me/966595217811",
    "maps_url": "https://maps.app.goo.gl/5EgemRmQRvRikJSt5"
  },
  {
    "branch": "P0212",
    "address": "جدة/كمبوند الشربتلي",
    "lat": 21.6041406557934,
    "lon": 39.1968190107544,
    "whatsapp": "https://wa.me/966542694042",
    "maps_url": "https://maps.app.goo.gl/7zASYp5bcPawVTGd8"
  },
  {
    "branch": "P0213",
    "address": "جدة/حي الوزيرية",
    "lat": 21.4641777637667,
    "lon": 39.2412941705788,
    "whatsapp": "https://wa.me/966595332854",
    "maps_url": "https://maps.app.goo.gl/JZRrmmJNNFKQyQF3A"
  },
  {
    "branch": "P0214",
    "address": "جدة/حي الوزيرية",
    "lat": 21.4629256646599,
    "lon": 39.2442237303897,
    "whatsapp": "https://wa.me/966596130557",
    "maps_url": "https://maps.app.goo.gl/3ZcivqTe1qkDhCww9"
  },
  {
    "branch": "P0215",
    "address": "جدة/حي المحمدية",
    "lat": 21.644147,
    "lon": 39.139524,
    "whatsapp": "https://wa.me/966599289169",
    "maps_url": "https://maps.app.goo.gl/yG38qWtK5ESAFdr99"
  },
  {
    "branch": "P0216",
    "address": "جدة /حي القرينية",
    "lat": 21.327952,
    "lon": 39.245955,
    "whatsapp": "https://wa.me/966599421325",
    "maps_url": "https://maps.app.goo.gl/bsqTi5uR86m2ugws7"
  },
  {
    "branch": "P0217",
    "address": "جدة/حي الريان",
    "lat": 21.683662,
    "lon": 39.208527,
    "whatsapp": "https://wa.me/966596392199",
    "maps_url": "https://maps.app.goo.gl/VqcdRD5zU5RkfQF3A"
  },
  {
    "branch": "P0218",
    "address": "جدة/حي ابحر الجنوبية",
    "lat": 21.744965,
    "lon": 39.138165,
    "whatsapp": "https://wa.me/966593903959",
    "maps_url": "https://maps.app.goo.gl/yPsBkdcAtJs8ctrQ8"
  },
  {
    "branch": "P0219",
    "address": "جدة/حي الرياض",
    "lat": 21.854668,
    "lon": 39.196192,
    "whatsapp": "https://wa.me/966599673723",
    "maps_url": "https://maps.app.goo.gl/BaAAiu68SwvdUA249"
  },
  {
    "branch": "P0220",
    "address": "جدة/حي الصالحية",
    "lat": 21.767529,
    "lon": 39.221499,
    "whatsapp": "https://wa.me/966593904800",
    "maps_url": "https://maps.app.goo.gl/TCS7xTPqnCSas9WV9"
  },
  {
    "branch": "P0221",
    "address": "جدة/حي القرينية 2",
    "lat": 21.327241,
    "lon": 39.243773,
    "whatsapp": "https://wa.me/966594197990",
    "maps_url": "https://maps.app.goo.gl/ey3baXAdwnUE6njc7"
  },
  {
    "branch": "P0222",
    "address": "جدة/حي السنابل",
    "lat": 21.396896,
    "lon": 39.275551,
    "whatsapp": "https://wa.me/966593884612",
    "maps_url": "https://maps.app.goo.gl/8QXK2U2ucydvF8Ge6"
  },
  {
    "branch": "P0223",
    "address": "جدة/ حي الأجاويد",
    "lat": 21.402079,
    "lon": 39.300597,
    "whatsapp": "https://wa.me/966595887157",
    "maps_url": "https://maps.app.goo.gl/i7MkAZvekpmLqLGr7"
  },
  {
    "branch": "P0224",
    "address": "جدة/ حي المروة",
    "lat": 21.610561,
    "lon": 39.196035,
    "whatsapp": "https://wa.me/966596279092",
    "maps_url": "https://maps.app.goo.gl/UZji14MEUw3kNbfx5"
  },
  {
    "branch": "P0225",
    "address": "جدة/حي السامر",
    "lat": 21.5896491,
    "lon": 39.2503868,
    "whatsapp": "https://wa.me/966596861559",
    "maps_url": "https://maps.app.goo.gl/TtkcCFXnrAnRvr9r6"
  },
  {
    "branch": "P0301",
    "address": "بريدة/حي الفايزية",
    "lat": 26.3675353464397,
    "lon": 43.9681978888942,
    "whatsapp": "https://wa.me/966596752395",
    "maps_url": "https://maps.app.goo.gl/GU6ZV8wnrakRNHxr5"
  },
  {
    "branch": "P0302",
    "address": "بريدة/حي الفايزية",
    "lat": 26.3766808698441,
    "lon": 43.9694352139568,
    "whatsapp": "https://wa.me/966596085205",
    "maps_url": "https://maps.app.goo.gl/6QJCi2AYztZUpWTo6"
  },
  {
    "branch": "P0303",
    "address": "بريدة/حي الروضة",
    "lat": 26.383586555014,
    "lon": 43.9060634576382,
    "whatsapp": "https://wa.me/966595171141",
    "maps_url": "https://maps.app.goo.gl/kvNqtYZpjMjMennq7"
  },
  {
    "branch": "P0304",
    "address": "بريدة/حي الفايزية",
    "lat": 26.3714491494213,
    "lon": 43.977041902893,
    "whatsapp": "https://wa.me/966599206939",
    "maps_url": "https://maps.app.goo.gl/15P3DK1rey122ntVA"
  },
  {
    "branch": "P0305",
    "address": "بريدة/حي البشر",
    "lat": 26.3825928,
    "lon": 43.9268991,
    "whatsapp": "https://wa.me/966593904600",
    "maps_url": "https://maps.app.goo.gl/2dr5BVeHrZAabRE56"
  },
  {
    "branch": "P0306",
    "address": "بريدة/حي النخيل",
    "lat": 26.377023,
    "lon": 43.894779,
    "whatsapp": "https://wa.me/966597126524",
    "maps_url": "https://maps.app.goo.gl/74Yu1yyGqvBcWaNj9?g_st=iw"
  },
  {
    "branch": "P0307",
    "address": "بريدة/حي الأفق",
    "lat": 26.3872451,
    "lon": 43.9549758,
    "whatsapp": "https://wa.me/966598532890",
    "maps_url": "https://maps.app.goo.gl/qFG9BuheZdKfNuYC6?g_st=iw"
  },
  {
    "branch": "P0308",
    "address": "حوطة سدير/طريق الملك فهد",
    "lat": 25.5958422,
    "lon": 45.6247178,
    "whatsapp": "https://wa.me/966598819599",
    "maps_url": "https://maps.app.goo.gl/q3PWte4dwbaNTU167"
  },
  {
    "branch": "P0309",
    "address": "عنيزة/حي الفاخرية",
    "lat": 26.064087,
    "lon": 43.978142,
    "whatsapp": "https://wa.me/966599682131",
    "maps_url": "https://maps.app.goo.gl/Yj2wNoEVtnaK1t3N7"
  },
  {
    "branch": "P0401",
    "address": "مكة/حي ولي العهد",
    "lat": 21.3020514,
    "lon": 39.6837071,
    "whatsapp": "https://wa.me/966597878470",
    "maps_url": "https://maps.app.goo.gl/z6E29n4XG8FZ81pT8"
  },
  {
    "branch": "P0402",
    "address": "مكة/حي النوارية",
    "lat": 21.570523,
    "lon": 39.770413,
    "whatsapp": "https://wa.me/966599571914",
    "maps_url": "https://maps.app.goo.gl/DLaxNqZ8NrtA1zyh6"
  },
  {
    "branch": "P0403",
    "address": "مكة/حي الخضراء",
    "lat": 21.461729,
    "lon": 39.9341267,
    "whatsapp": "https://wa.me/966599893236",
    "maps_url": "https://maps.app.goo.gl/RmzbnM4Mkx6TMZk2A"
  },
  {
    "branch": "P0404",
    "address": "مكة/حي الخالدية",
    "lat": 21.4010596,
    "lon": 39.8006398,
    "whatsapp": "https://wa.me/966599069814",
    "maps_url": "https://maps.app.goo.gl/u9CpZVwRML2SK5Yi8"
  },
  {
    "branch": "P0501",
    "address": "المدينة/حي الخالدية",
    "lat": 24.457237,
    "lon": 39.655151,
    "whatsapp": "https://wa.me/966599744817",
    "maps_url": "https://maps.app.goo.gl/Q1tbCcmovksFZ4Cu8"
  },
  {
    "branch": "P0502",
    "address": "المدينة/حي طيبة",
    "lat": 24.4892778,
    "lon": 39.5167222,
    "whatsapp": "https://wa.me/966596049496",
    "maps_url": "https://maps.app.goo.gl/nVD5LDqJ23weSTfz6"
  },
  {
    "branch": "P0503",
    "address": "المدينة/حي القصواء",
    "lat": 24.4274444,
    "lon": 39.6017222,
    "whatsapp": "https://wa.me/966596059951",
    "maps_url": "https://maps.app.goo.gl/HxgG1m9CkGu73fYE7"
  },
  {
    "branch": "P0504",
    "address": "المدينة/حي النبلاء",
    "lat": 24.3857778,
    "lon": 39.6611667,
    "whatsapp": "https://wa.me/966596169645",
    "maps_url": "https://maps.app.goo.gl/CFMKp1XhypwEJff77"
  },
  {
    "branch": "P0505",
    "address": "المدينة/حي شظاة",
    "lat": 24.489944,
    "lon": 39.65888,
    "whatsapp": "https://wa.me/966596171136",
    "maps_url": "https://maps.app.goo.gl/SWdFuoVY5kyovNkQ8"
  },
  {
    "branch": "P0506",
    "address": "المدينة/حي الملك فهد",
    "lat": 24.5115556,
    "lon": 39.6989444,
    "whatsapp": "https://wa.me/966596173796",
    "maps_url": "https://maps.app.goo.gl/h5n1tPJKnpb6H1B18"
  },
  {
    "branch": "P0507",
    "address": "المدينة/حي العزيزية",
    "lat": 24.451902,
    "lon": 39.5379051,
    "whatsapp": "https://wa.me/966596171311",
    "maps_url": "https://maps.app.goo.gl/GxeENsgzrZwBhMoX9"
  },
  {
    "branch": "P0508",
    "address": "المدينة/حي شوران",
    "lat": 24.414765,
    "lon": 39.6592778,
    "whatsapp": "https://wa.me/966920032101",
    "maps_url": "https://maps.app.goo.gl/XLj6e2H74n4BLyif9"
  },
  {
    "branch": "P0509",
    "address": "المدينة/حي باقدو",
    "lat": 24.4876667,
    "lon": 39.6788056,
    "whatsapp": "https://wa.me/966920032101",
    "maps_url": "https://maps.app.goo.gl/4AksCf8X45ETyFQB9"
  },
  {
    "branch": "P0601",
    "address": "تبوك/حي العليا",
    "lat": 28.381221,
    "lon": 36.578357,
    "whatsapp": "https://wa.me/966596563325",
    "maps_url": "https://maps.app.goo.gl/8dWRpGTY5jZaFbZT8"
  },
  {
    "branch": "P0602",
    "address": "تبوك/حي المصيف",
    "lat": 28.437021,
    "lon": 36.543814,
    "whatsapp": "https://wa.me/966596750935",
    "maps_url": "https://maps.app.goo.gl/RhtBRGekJ3pSFF6e9"
  },
  {
    "branch": "P0603",
    "address": "تبوك/حي الصفا / ش ابراهيم الخليل",
    "lat": 28.367892,
    "lon": 36.506738,
    "whatsapp": "https://wa.me/966596563578",
    "maps_url": "https://maps.app.goo.gl/HtdKupqbD7UTxtmUA"
  },
  {
    "branch": "P0604",
    "address": "تبوك/حي اليرموك",
    "lat": 28.356332,
    "lon": 36.517988,
    "whatsapp": "https://wa.me/966920032101",
    "maps_url": "https://maps.app.goo.gl/LddaHV7GgWBFoAv9A"
  },
  {
    "branch": "P0605",
    "address": "تبوك/حي الصفا / طريق الأمير محمد بن سلمان",
    "lat": 28.370786,
    "lon": 36.525628,
    "whatsapp": "https://wa.me/966920032101",
    "maps_url": "https://maps.app.goo.gl/ctdLNMuwGB8S7A897"
  },
  {
    "branch": "P0606",
    "address": "تبوك/حي الريان",
    "lat": 28.460963,
    "lon": 36.558631,
    "whatsapp": "https://wa.me/966920032101",
    "maps_url": "https://maps.app.goo.gl/j9wpF3Y3VR1f5a7r5"
  },
  {
    "branch": "P0607",
    "address": "تبوك/حي المهرجان",
    "lat": 28.4005545,
    "lon": 36.5623975,
    "whatsapp": "https://wa.me/966920032101",
    "maps_url": "https://maps.app.goo.gl/q8mVXCRtUscom1fP6"
  },
  {
    "branch": "P0608",
    "address": "تبوك/حي الهضيبة",
    "lat": 28.363437,
    "lon": 36.567188,
    "whatsapp": "https://wa.me/966596563465",
    "maps_url": "https://maps.app.goo.gl/NreaTPYfmEababoM8"
  },
  {
    "branch": "P0609",
    "address": "تبوك/حي الصفا / طريق الملك عبدالله",
    "lat": 28.35992,
    "lon": 36.519597,
    "whatsapp": "https://wa.me/966920032101",
    "maps_url": "https://maps.app.goo.gl/zQA94wdoBQ8xxWdA8"
  },
  {
    "branch": "P0701",
    "address": "الاحساء/طريق الملك عبدالله",
    "lat": 25.340064,
    "lon": 49.546605,
    "whatsapp": "https://wa.me/966596163816",
    "maps_url": "https://maps.app.goo.gl/xJZLJfhQCryjRhfF9"
  },
]
