[
  {
    "branch": "PH001 - اليرموك",
    "address": "الرياض - حي اليرموك - شارع النجاح",
    "lat": 24.80123,
    "lon": 46.71245,
    "whatsapp": "https://wa.me/9665XXXXXXXX",
    "maps_url": "https://maps.google.com/?q=24.80123,46.71245"
  },
  {
    "branch": "PH002 - الريان",
    "address": "الرياض - حي الريان - شارع الإمام الشافعي",
    "lat": 24.77431,
    "lon": 46.76782,
    "whatsapp": "https://wa.me/9665XXXXXXXX",
    "maps_url": "https://maps.google.com/?q=24.77431,46.76782"
  },
  {
    "branch": "PH003 - المروج",
    "address": "الرياض - حي المروج - شارع العليا",
    "lat": 24.74210,
    "lon": 46.66540,
    "whatsapp": "https://wa.me/9665XXXXXXXX",
    "maps_url": "https://maps.google.com/?q=24.74210,46.66540"
  },
  {
    "branch": "PH004 - العزيزية",
    "address": "الرياض - حي العزيزية - شارع النصر",
    "lat": 24.55360,
    "lon": 46.73010,
    "whatsapp": "https://wa.me/9665XXXXXXXX",
    "maps_url": "https://maps.google.com/?q=24.55360,46.73010"
  },
  {
    "branch": "PH005 - النسيم",
    "address": "الرياض - حي النسيم - شارع سعد بن أبي وقاص",
    "lat": 24.73700,
    "lon": 46.80010,
    "whatsapp": "https://wa.me/9665XXXXXXXX",
    "maps_url": "https://maps.google.com/?q=24.73700,46.80010"
  }
]
