[
  {
    "branch": "P0001",
    "address": "الرياض / حي الحزم /ش علي النقيب",
    "lat": 24.537276,
    "lon": 46.645605,
    "whatsapp": null,
    "maps_url": "https://maps.app.goo.gl/VBfyK7smQGJGNia39"
  },
  {
    "branch": "P0002",
    "address": "الرياض/حي اليرموك/ش ابوجعفر المنصور",
    "lat": 24.8061703,
    "lon": 46.77527122,
    "whatsapp": null,
    "maps_url": "https://goo.gl/maps/82uPksKtkYgfoTWD9"
  },
  {
    "branch": "P0003",
    "address": "الرياض/حي الصحافه/ش الامير سلمان بن محمد",
    "lat": 24.80454604,
    "lon": 46.64157258,
    "whatsapp": null,
    "maps_url": "https://goo.gl/maps/SqwUSg9Z59Z5d33X6"
  },
  {
    "branch": "P0004",
    "address": "الرياض/حي العارض/طريق الملك عبدالعزيز",
    "lat": 24.88645688,
    "lon": 46.61008981,
    "whatsapp": null,
    "maps_url": "https://goo.gl/maps/BxhckgqcdfLqSntC8"
  },
  {
    "branch": "P0005",
    "address": "الرياض/حي النزهه/ش الامير مقرن بن عبدالعزيز",
    "lat": 24.75484901,
    "lon": 46.70769403,
    "whatsapp": null,
    "maps_url": "https://goo.gl/maps/mUURZGDF3SjF4rFY9"
  },
  {
    "branch": "P0006",
    "address": "الرياض/حي الملك فهد/ش هشام بن عبدالملك",
    "lat": 24.74431563,
    "lon": 46.67580443,
    "whatsapp": null,
    "maps_url": "https://maps.app.goo.gl/ixnLUPswmHAwqYs77"
  },
  {
    "branch": "P0007",
    "address": "الرياض/حي المهدية",
    "lat": 24.65704006,
    "lon": 46.52476905,
    "whatsapp": null,
    "maps_url": "https://goo.gl/maps/fsBxuvXVJjRDNnkb9"
  },
  {
    "branch": "P0008",
    "address": "الرياض/حي العارض /طريق الملك عبدالعزيز",
    "lat": 24.86563712,
    "lon": 46.62047699,
    "whatsapp": null,
    "maps_url": "https://goo.gl/maps/gtNdZLBmVDsgBGbt5"
  },
  {
    "branch": "P0009",
    "address": "الرياض/حي القدس /طريق الأمير سعود الكبير",
    "lat": 24.75941222,
    "lon": 46.75746436,
    "whatsapp": null,
    "maps_url": "https://goo.gl/maps/uHTk2X83HZfxd8o79"
  },
  {
    "branch": "P0010",
    "address": "الرياض /حي المعزر/اسكان المعزر",
    "lat": 24.67572331,
    "lon": 46.69972929,
    "whatsapp": null,
    "maps_url": "https://goo.gl/maps/8a6gPp8AttY1kJX76"
  },
  {
    "branch": "P0011",
    "address": "الرياض/الدرعيه/الشارع العام",
    "lat": 24.74867661,
    "lon": 46.57174347,
    "whatsapp": null,
    "maps_url": "https://goo.gl/maps/ctBieHoecJbVCFYH8"
  },
  {
    "branch": "P0012",
    "address": "الرياض/حي الخليج/ش الشيخ سليمان بن عبدالله",
    "lat": 24.77232438,
    "lon": 46.79294014,
    "whatsapp": null,
    "maps_url": "https://g.page/r/CW4XcWIGTCjdEAE?gm"
  },
  {
    "branch": "P0013",
    "address": "الرياض/حي الرمال",
    "lat": 24.85406631,
    "lon": 46.82657129,
    "whatsapp": null,
    "maps_url": "https://maps.app.goo.gl/UW8imME61ppuT3zJ9"
  },
  {
    "branch": "P0014",
    "address": "الرياض /حي الروابي/ش الزبير بن العوام",
    "lat": 24.69683521,
    "lon": 46.79514273,
    "whatsapp": null,
    "maps_url": "https://maps.app.goo.gl/56SY5FdVrno349po9"
  },
  {
    "branch": "P0015",
    "address": "الرياض/حي العريجاء/ش الامير مساعد بن فيصل",
    "lat": 24.6158876,
    "lon": 46.64944856,
    "whatsapp": null,
    "maps_url": "https://maps.app.goo.gl/Ga4Qr532uZwRrNvdA"
  },
  {
    "branch": "P0016",
    "address": "الرياض/حي الدار البيضاء / شارع ابن حجر ",
    "lat": 24.56762585,
    "lon": 46.80046227,
    "whatsapp": null,
    "maps_url": "https://g.page/r/CRijSP-X2-1uEAE"
  },
  {
    "branch": "P0017",
    "address": "الرياض/حي العارض/ش ريحانة بنت زيد",
    "lat": 24.89022501,
    "lon": 46.62512285,
    "whatsapp": null,
    "maps_url": "https://goo.gl/maps/drzjqKiQqJH2VHZm8"
  },
  {
    "branch": "P0018",
    "address": "الرياض/حي الجنادريه/ش الشروق",
    "lat": 24.84199418,
    "lon": 46.88427554,
    "whatsapp": null,
    "maps_url": "https://goo.gl/maps/syZeYyUGjRVZ5ePL9"
  },
  {
    "branch": "P0019",
    "address": "الرياض/حي الروابي/ش عبدالله بن عباس",
    "lat": 24.69336658,
    "lon": 46.79427989,
    "whatsapp": null,
    "maps_url": "https://goo.gl/maps/4xiVzB6AnCwF9mrE6"
  },
  {
    "branch": "P0020",
    "address": "الرياض/حي النظيم/ش المحيط",
    "lat": 24.80632397,
    "lon": 46.88209675,
    "whatsapp": null,
    "maps_url": "https://maps.app.goo.gl/ysKg9TsSoGxgDbjB8"
  },
  {
    "branch": "P0021",
    "address": "الرياض/حي الربوة / طريق النهضة ",
    "lat": 24.69492509,
    "lon": 46.75279346,
    "whatsapp": null,
    "maps_url": "https://maps.app.goo.gl/D4u1vBFVpVvbWga76"
  },
  {
    "branch": "P0022",
    "address": "الرياض/حي طويق / ش أحمد بن الخطاب",
    "lat": 24.559924,
    "lon": 46.556966,
    "whatsapp": null,
    "maps_url": "https://maps.app.goo.gl/AnHEHQzQ74xkm3Vn7"
  },
  {
    "branch": "P0023",
    "address": "رفحاء / حي النموذجية جنوب",
    "lat": 29.62629149,
    "lon": 43.50956856,
    "whatsapp": null,
    "maps_url": "https://g.page/r/CfwNPnCl1faGEAE"
  },
  {
    "branch": "P0024",
    "address": "رفحاء /حى الورود / الورود 59",
    "lat": 29.59778754,
    "lon": 43.54852446,
    "whatsapp": null,
    "maps_url": "https://maps.app.goo.gl/zd9thoEFDR39cYwr7"
  },
  {
    "branch": "P0025",
    "address": "الرياض / حي العريجاء / شارع الامام أبي حنيفة",
    "lat": 24.626833,
    "lon": 46.66401837,
    "whatsapp": null,
    "maps_url": "https://goo.gl/maps/JCMuxTfjReMYpWvs8"
  },
  {
    "branch": "P0026",
    "address": "الرياض/حي العارض/ش ابوبكر الصديق",
    "lat": 24.86332689,
    "lon": 46.64341054,
    "whatsapp": null,
    "maps_url": "https://maps.app.goo.gl/Yo3sS44srM68x9Sc9"
  },
  {
    "branch": "P0027",
    "address": "الرياض /حي اشبيليا/ش القبة",
    "lat": 24.78790273,
    "lon": 46.77738213,
    "whatsapp": null,
    "maps_url": "https://maps.app.goo.gl/9pN9k4EnpCbWvq5k9"
  },
  {
    "branch": "P0028",
    "address": "الرياض /حي قرطبة/ش دباس بن راشد",
    "lat": 24.82770504,
    "lon": 46.73783027,
    "whatsapp": null,
    "maps_url": "https://g.page/r/CeqciONeqNGZEAE"
  },
  {
    "branch": "P0029",
    "address": "الرياض /حي اشيبيليا / ش النجاح",
    "lat": 24.80561817,
    "lon": 46.80293741,
    "whatsapp": null,
    "maps_url": "https://maps.app.goo.gl/g58uDr8d1cXRLpiUA"
  },
  {
    "branch": "P0030",
    "address": "الرياض /حي المحمدية",
    "lat": 24.74084323,
    "lon": 46.64760138,
    "whatsapp": null,
    "maps_url": "https://maps.app.goo.gl/tNKJqSsPU7W4rxhw6"
  },
  {
    "branch": "P0031",
    "address": "الرياض /حي العقيق / ش السليمانية",
    "lat": 24.78227441,
    "lon": 46.62397356,
    "whatsapp": null,
    "maps_url": "https://maps.app.goo.gl/7aUzRJvFCDKAEx587"
  },
  {
    "branch": "P0032",
    "address": "الرياض /حي المؤنسية / ش عبدالله بن سيف",
    "lat": 24.83621657,
    "lon": 46.75213928,
    "whatsapp": null,
    "maps_url": "https://maps.app.goo.gl/ztQAQopi6tc41JHh7"
  },
  {
    "branch": "P0033",
    "address": "الخرج / قاعدة الامير سلطان الجوية ",
    "lat": 24.06986295,
    "lon": 47.49016175,
    "whatsapp": null,
    "maps_url": "https://maps.app.goo.gl/AD7bqgjRUEQhCZ6NA"
  },
  {
    "branch": "P0035",
    "address": "الرياض /حي النسيم الغربي / ش الامام أحمد بن حنبل",
    "lat": 24.72612307,
    "lon": 46.81593883,
    "whatsapp": null,
    "maps_url": "https://maps.app.goo.gl/HTYL6QNKCHKbwwUg6"
  },
  {
    "branch": "P0101",
    "address": "الطائف/ الشرقية",
    "lat": 21.27473826,
    "lon": 40.4141991,
    "whatsapp": null,
    "maps_url": "https://goo.gl/maps/wwMULqfK3ySWdrT86"
  },
  {
    "branch": "P0102",
    "address": "الطائف/ شبرا",
    "lat": 21.2794061,
    "lon": 40.41250204,
    "whatsapp": null,
    "maps_url": "https://goo.gl/maps/8dJEg9u7DkowBV687"
  },
  {
    "branch": "P0103",
    "address": "الطائف/ أسواق النخيل ",
    "lat": 21.26331125,
    "lon": 40.42905982,
    "whatsapp": null,
    "maps_url": "https://goo.gl/maps/UFNUh51arJiy7MSL6"
  },
  {
    "branch": "P0104",
    "address": "الطائف/ مول قلب الطائف",
    "lat": 21.28774309,
    "lon": 40.41948611,
    "whatsapp": null,
    "maps_url": "https://maps.app.goo.gl/Yt2UYtBQFCJ1QJUu8"
  },
  {
    "branch": "P0105",
    "address": "الطائف / السديرة",
    "lat": 21.35907576,
    "lon": 40.83844342,
    "whatsapp": null,
    "maps_url": "https://maps.app.goo.gl/dgdKYm1WT82zuaNf6"
  },
  {
    "branch": "P0106",
    "address": "الطائف/ شبرا /  شارع أبو بكر الصديق",
    "lat": 21.28470686,
    "lon": 40.41660845,
    "whatsapp": null,
    "maps_url": "https://maps.app.goo.gl/kU1pmUKUZdQFAQ5eA"
  },
  {
    "branch": "P0107",
    "address": "الطائف/ حي العرفاء ",
    "lat": 21.53105734,
    "lon": 40.61252375,
    "whatsapp": null,
    "maps_url": "https://maps.app.goo.gl/umrVgfmxMCrcaRa59"
  },
  {
    "branch": "P0108",
    "address": "الطائف/حي الوسام/ش عمرابن الخطاب",
    "lat": 21.2253725,
    "lon": 40.3757727,
    "whatsapp": null,
    "maps_url": "https://g.page/r/CWjWKq5MFvLxEAE"
  },
  {
    "branch": "P0109",
    "address": "الطائف/ مخطط البيعة",
    "lat": 21.28325158,
    "lon": 40.44014259,
    "whatsapp": null,
    "maps_url": "https://maps.app.goo.gl/5h4mz1Bq4kRfqgQs7"
  },
  {
    "branch": "P0110",
    "address": "الطائف/ مثملة",
    "lat": 21.45659453,
    "lon": 40.48330307,
    "whatsapp": null,
    "maps_url": "https://goo.gl/maps/eE1iA45Cv8EB6PhV9"
  },
  {
    "branch": "P0111",
    "address": "الطائف/الوسام /طريق الوهط السياحي",
    "lat": 21.23647587,
    "lon": 40.36292728,
    "whatsapp": null,
    "maps_url": "https://goo.gl/maps/kCTRuG9mv3CKg9RE7"
  },
  {
    "branch": "P0112",
    "address": "الطائف/حي الحلقة شرق/ش سليمان الراجحى",
    "lat": 21.34378689,
    "lon": 40.44304751,
    "whatsapp": null,
    "maps_url": "https://g.page/r/Ca-I1pmjGJeCEAE"
  },
  {
    "branch": "P0113",
    "address": "الطائف/حي الوسام2",
    "lat": 21.225218,
    "lon": 40.3947692,
    "whatsapp": null,
    "maps_url": "https://g.page/r/CcTOAjtysUjREAE"
  },
  {
    "branch": "P0114",
    "address": "الطائف /الشطبه/الشهداء الجنوبيه",
    "lat": 21.2578835,
    "lon": 40.41764744,
    "whatsapp": null,
    "maps_url": "https://g.page/r/CU_J10q5akKBEAE"
  },
  {
    "branch": "P0115",
    "address": "الطائف /الدهاس",
    "lat": 21.450053,
    "lon": 40.50960462,
    "whatsapp": null,
    "maps_url": "https://goo.gl/maps/sSUawUnAYSRQJGNeA"
  },
  {
    "branch": "P0116",
    "address": "الطائف /الغزالي",
    "lat": 21.26771124,
    "lon": 40.42921356,
    "whatsapp": null,
    "maps_url": "https://maps.app.goo.gl/EcUXRy7aEQXg6iVx9"
  },
  {
    "branch": "P0117",
    "address": "الطائف /طريق المطار",
    "lat": 21.36305515,
    "lon": 40.45700156,
    "whatsapp": null,
    "maps_url": "https://goo.gl/maps/EYPwWDpW4Lxitb3J6"
  },
  {
    "branch": "P0118",
    "address": "الطائف /شهار",
    "lat": 21.25563441,
    "lon": 40.40958866,
    "whatsapp": null,
    "maps_url": "https://goo.gl/maps/RXePGMEMk4F4Lamq7"
  },
  {
    "branch": "P0119",
    "address": "الطائف / الرحاب",
    "lat": 21.45255339,
    "lon": 40.43912451,
    "whatsapp": null,
    "maps_url": "https://goo.gl/maps/1g9NLAtF8m69Zsdd6"
  },
  {
    "branch": "P0120",
    "address": "الطائف /عشيرة",
    "lat": 21.75827112,
    "lon": 40.65611282,
    "whatsapp": null,
    "maps_url": "https://goo.gl/maps/XFPfuJVAiy9NZeDb9"
  },
  {
    "branch": "P0121",
    "address": "الطائف / الواسط",
    "lat": 21.47070612,
    "lon": 40.47014459,
    "whatsapp": null,
    "maps_url": "https://goo.gl/maps/NF1ANGML2M3U12y37"
  },
  {
    "branch": "P0122",
    "address": "الطائف / البيعة",
    "lat": 21.28749847,
    "lon": 40.43809268,
    "whatsapp": null,
    "maps_url": "https://maps.app.goo.gl/mj1Zet6Ue9KULDku8"
  },
  {
    "branch": "P0123",
    "address": "الطائف / النزهة ",
    "lat": 21.260201,
    "lon": 40.41182638,
    "whatsapp": null,
    "maps_url": "https://maps.app.goo.gl/VPV2a9djMBHRtY8CA"
  },
  {
    "branch": "P0124",
    "address": "الطائف / جبرة",
    "lat": 21.30156607,
    "lon": 40.45002377,
    "whatsapp": null,
    "maps_url": "https://maps.app.goo.gl/a3wqho8zzQPs1HWM7"
  },
  {
    "branch": "P0125",
    "address": "الطائف / السر",
    "lat": 21.20699891,
    "lon": 40.59347395,
    "whatsapp": null,
    "maps_url": "https://maps.app.goo.gl/7rWKhrSpr2qPccrr8"
  },
  {
    "branch": "P0126",
    "address": "الطائف / السيل الصغير",
    "lat": 21.50332095,
    "lon": 40.4901473,
    "whatsapp": null,
    "maps_url": "https://maps.app.goo.gl/5nMm2RuhJfse1Yvu6"
  },
  {
    "branch": "P0127",
    "address": "الطائف / بني مالك",
    "lat": 20.66692287,
    "lon": 40.98520879,
    "whatsapp": null,
    "maps_url": "https://maps.app.goo.gl/RMicEkCgLbi1MHE19"
  },
  {
    "branch": "P0128",
    "address": "الطائف/ تربة",
    "lat": 21.21477992,
    "lon": 41.63044167,
    "whatsapp": null,
    "maps_url": "https://maps.app.goo.gl/Hp7hu9oHgD2TxmK57"
  },
  {
    "branch": "P0129",
    "address": "الطائف / تربة",
    "lat": 21.2067704,
    "lon": 41.6244286,
    "whatsapp": null,
    "maps_url": "https://maps.app.goo.gl/HLWnxchMkikVL35v5"
  },
  {
    "branch": "P0130",
    "address": "الطائف / المثناة",
    "lat": 21.2635026,
    "lon": 40.39816169,
    "whatsapp": null,
    "maps_url": "https://maps.app.goo.gl/QjmBa3rNFBwAemmK7"
  },
  {
    "branch": "P0131",
    "address": "الطائف / الحوية",
    "lat": 21.44820753,
    "lon": 40.4861584,
    "whatsapp": null,
    "maps_url": "https://maps.app.goo.gl/SikVy5Y7rE9ALk8P8"
  },
  {
    "branch": "P0132",
    "address": "الطائف / وادي جليل",
    "lat": 21.4091004,
    "lon": 40.5064715,
    "whatsapp": null,
    "maps_url": "https://maps.app.goo.gl/eosCbefsJ5dWRafY9"
  },
  {
    "branch": "P0133",
    "address": "الطائف / الشرقية",
    "lat": 21.2740237,
    "lon": 40.4138605,
    "whatsapp": null,
    "maps_url": "https://maps.app.goo.gl/1NMLWHNsXxYX9qco8"
  },
  {
    "branch": "P0201",
    "address": "جدة / ساوث مول",
    "lat": 21.45144873,
    "lon": 39.20928512,
    "whatsapp": null,
    "maps_url": "https://maps.app.goo.gl/LGpKRRJffTgH5eeWA"
  },
  {
    "branch": "P0202",
    "address": "جدة / رد سي مول",
    "lat": 21.62779239,
    "lon": 39.1099448,
    "whatsapp": null,
    "maps_url": "https://maps.app.goo.gl/hUs47YFhbZX3QHXT9"
  },
  {
    "branch": "P0203",
    "address": "جدة / حي البساتين",
    "lat": 21.68473999,
    "lon": 39.1177944,
    "whatsapp": null,
    "maps_url": "https://maps.app.goo.gl/LJMnmc5aTbwPyYjS8"
  },
  {
    "branch": "P0204",
    "address": "جدة / الجامعة بلازا",
    "lat": 21.48276816,
    "lon": 39.24255796,
    "whatsapp": null,
    "maps_url": "https://maps.app.goo.gl/yhzF2xP5A6kZiZYw7"
  },
  {
    "branch": "P0205",
    "address": "جدة / حي الروضة",
    "lat": 21.56123823,
    "lon": 39.16016343,
    "whatsapp": null,
    "maps_url": "https://maps.app.goo.gl/Rrs4jSMDGpQQNpdV9"
  },
  {
    "branch": "P0206",
    "address": "جدة / الصيرفي مول",
    "lat": 21.5600947,
    "lon": 39.18515379,
    "whatsapp": null,
    "maps_url": "https://maps.app.goo.gl/DfmEHR3oSo4BArv67"
  },
  {
    "branch": "P0207",
    "address": "جدة / ش فلسطين",
    "lat": 21.5212115,
    "lon": 39.159191,
    "whatsapp": null,
    "maps_url": "https://maps.app.goo.gl/UePUtSf46E7CRRyJ9"
  },
  {
    "branch": "P0208",
    "address": "جدة /شارع حراء",
    "lat": 21.60914224,
    "lon": 39.13146785,
    "whatsapp": null,
    "maps_url": "https://maps.app.goo.gl/DX46NbbYdhzNuAqX9"
  },
  {
    "branch": "P0209",
    "address": "جدة / شارع الأربعين",
    "lat": 21.55148459,
    "lon": 39.21528953,
    "whatsapp": null,
    "maps_url": "https://maps.app.goo.gl/DVApdDd6uHCAKD3J8"
  },
  {
    "branch": "P0210",
    "address": "جدة / السليمانية مول ",
    "lat": 21.50914766,
    "lon": 39.24447774,
    "whatsapp": null,
    "maps_url": "https://maps.app.goo.gl/BqyugxjcLfpdkFJNA"
  },
  {
    "branch": "P0211",
    "address": "جدة / شارع وادي وج",
    "lat": 21.55426152,
    "lon": 39.19154983,
    "whatsapp": null,
    "maps_url": "https://maps.app.goo.gl/5EgemRmQRvRikJSt5"
  },
  {
    "branch": "P0212",
    "address": "جدة / كمبوند الشربتلي",
    "lat": 21.60414066,
    "lon": 39.19681901,
    "whatsapp": null,
    "maps_url": "https://maps.app.goo.gl/7zASYp5bcPawVTGd8"
  },
  {
    "branch": "P0213",
    "address": "جدة / الوزيرية",
    "lat": 21.46417776,
    "lon": 39.24129417,
    "whatsapp": null,
    "maps_url": "https://maps.app.goo.gl/JZRrmmJNNFKQyQF3A"
  },
  {
    "branch": "P0214",
    "address": "جدة / الوزيرية",
    "lat": 21.46292566,
    "lon": 39.24422373,
    "whatsapp": null,
    "maps_url": "https://maps.app.goo.gl/3ZcivqTe1qkDhCww9"
  },
  {
    "branch": "P0215",
    "address": "جدة / المحمدية",
    "lat": 21.644147,
    "lon": 39.139524,
    "whatsapp": null,
    "maps_url": "https://maps.app.goo.gl/yG38qWtK5ESAFdr99"
  },
  {
    "branch": "P0216",
    "address": "جدة / القرينية",
    "lat": 21.327952,
    "lon": 39.245955,
    "whatsapp": null,
    "maps_url": "https://maps.app.goo.gl/bsqTi5uR86m2ugws7"
  },
  {
    "branch": "P0217",
    "address": "جدة / الريان",
    "lat": 21.683662,
    "lon": 39.208527,
    "whatsapp": null,
    "maps_url": "https://maps.app.goo.gl/VqcdRD5zU5RkfQF3A"
  },
  {
    "branch": "P0218",
    "address": "جدة / ابحر الجنوبية",
    "lat": 21.744965,
    "lon": 39.138165,
    "whatsapp": null,
    "maps_url": "https://maps.app.goo.gl/yPsBkdcAtJs8ctrQ8"
  },
  {
    "branch": "P0219",
    "address": "جدة / الرياض 1 ",
    "lat": 21.854668,
    "lon": 39.196192,
    "whatsapp": null,
    "maps_url": "https://maps.app.goo.gl/BaAAiu68SwvdUA249"
  },
  {
    "branch": "P0220",
    "address": "جدة / الصالحية",
    "lat": 21.767529,
    "lon": 39.221499,
    "whatsapp": null,
    "maps_url": "https://maps.app.goo.gl/TCS7xTPqnCSas9WV9"
  },
  {
    "branch": "P0221",
    "address": "جدة / القرينية 2",
    "lat": 21.327241,
    "lon": 39.243773,
    "whatsapp": null,
    "maps_url": "https://maps.app.goo.gl/ey3baXAdwnUE6njc7"
  },
  {
    "branch": "P0222",
    "address": "جدة / السنابل ",
    "lat": 21.396896,
    "lon": 39.275551,
    "whatsapp": null,
    "maps_url": "https://maps.app.goo.gl/8QXK2U2ucydvF8Ge6"
  },
  {
    "branch": "P0223",
    "address": "جدة / الأجاويد",
    "lat": 21.402079,
    "lon": 39.300597,
    "whatsapp": null,
    "maps_url": "https://maps.app.goo.gl/i7MkAZvekpmLqLGr7"
  },
  {
    "branch": "P0301",
    "address": "بريدة/ الفايزية",
    "lat": 26.36753535,
    "lon": 43.96819789,
    "whatsapp": null,
    "maps_url": "https://maps.app.goo.gl/GU6ZV8wnrakRNHxr5"
  },
  {
    "branch": "P0302",
    "address": "بريدة/ الفايزية",
    "lat": 26.37668087,
    "lon": 43.96943521,
    "whatsapp": null,
    "maps_url": "https://maps.app.goo.gl/6QJCi2AYztZUpWTo6"
  },
  {
    "branch": "P0303",
    "address": "بريدة/ الروضة",
    "lat": 26.38358656,
    "lon": 43.90606346,
    "whatsapp": null,
    "maps_url": "https://maps.app.goo.gl/kvNqtYZpjMjMennq7"
  },
  {
    "branch": "P0304",
    "address": "بريدة/ الفايزية",
    "lat": 26.37144915,
    "lon": 43.9770419,
    "whatsapp": null,
    "maps_url": "https://maps.app.goo.gl/15P3DK1rey122ntVA"
  },
  {
    "branch": "P0305",
    "address": "بريدة/ الروضة",
    "lat": 26.3825928,
    "lon": 43.9268991,
    "whatsapp": null,
    "maps_url": "https://maps.app.goo.gl/2dr5BVeHrZAabRE56"
  }
]